[{"state": "WA", "pop": 100953, "name": "Renton", "lat": 47.4757, "lng": -122.1904, "type": "city"}, {"state": "WA", "pop": 3541236, "name": "Seattle", "lat": 47.6217, "lng": -122.3238, "type": "city"}, {"state": "WA", "pop": 133687, "name": "Yakima", "lat": 46.5926, "lng": -120.5492, "type": "city"}, {"state": "WA", "pop": 229624, "name": "Kennewick", "lat": 46.1979, "lng": -119.1732, "type": "city"}, {"state": "WA", "pop": 127514, "name": "Kent", "lat": 47.3887, "lng": -122.2128, "type": "city"}, {"state": "WA", "pop": 194532, "name": "Olympia", "lat": 47.0417, "lng": -122.8958, "type": "city"}, {"state": "WA", "pop": 214549, "name": "Bremerton", "lat": 47.5436, "lng": -122.7121, "type": "city"}, {"state": "WA", "pop": 211277, "name": "Tacoma", "lat": 47.2431, "lng": -122.4531, "type": "city"}, {"state": "WA", "pop": 141400, "name": "Bellevue", "lat": 47.5953, "lng": -122.155, "type": "city"}, {"state": "WA", "pop": 163547, "name": "Marysville", "lat": 48.0812, "lng": -122.1559, "type": "city"}, {"state": "WA", "pop": 123933, "name": "Bellingham", "lat": 48.7534, "lng": -122.4683, "type": "city"}, {"state": "WA", "pop": 400936, "name": "Spokane", "lat": 47.6671, "lng": -117.433, "type": "city"}, {"state": "WA", "pop": 174826, "name": "Vancouver", "lat": 45.6352, "lng": -122.5972, "type": "city"}, {"state": "WA", "pop": 109043, "name": "Everett", "lat": 47.9524, "lng": -122.1672, "type": "city"}, {"state": "VA", "pop": 1041877, "name": "Richmond", "lat": 37.5294, "lng": -77.4755, "type": "city"}, {"state": "VA", "pop": 1487505, "name": "Virginia Beach", "lat": 36.7335, "lng": -76.0435, "type": "city"}, {"state": "VA", "pop": 237940, "name": "Chesapeake", "lat": 36.6778, "lng": -76.3024, "type": "city"}, {"state": "VA", "pop": 245115, "name": "Norfolk", "lat": 36.8945, "lng": -76.259, "type": "city"}, {"state": "VA", "pop": 164610, "name": "Fredericksburg", "lat": 38.2992, "lng": -77.4871, "type": "city"}, {"state": "VA", "pop": 181825, "name": "Newport News", "lat": 37.1052, "lng": -76.5185, "type": "city"}, {"state": "VA", "pop": 135410, "name": "Hampton", "lat": 37.0551, "lng": -76.3629, "type": "city"}, {"state": "VA", "pop": 215793, "name": "Roanoke", "lat": 37.2784, "lng": -79.9581, "type": "city"}, {"state": "VA", "pop": 155810, "name": "Alexandria", "lat": 38.8184, "lng": -77.0861, "type": "city"}, {"state": "VA", "pop": 123795, "name": "Lynchburg", "lat": 37.4004, "lng": -79.1911, "type": "city"}, {"state": "DE", "pop": 116114, "name": "Dover", "lat": 39.16, "lng": -75.5204, "type": "city"}, {"state": "DC", "pop": 5191844, "name": "Washington", "lat": 38.9047, "lng": -77.0163, "type": "city"}, {"state": "WI", "pop": 124580, "name": "Kenosha", "lat": 42.5861, "lng": -87.8755, "type": "city"}, {"state": "WI", "pop": 102427, "name": "La Crosse", "lat": 43.8234, "lng": -91.2279, "type": "city"}, {"state": "WI", "pop": 221379, "name": "Appleton", "lat": 44.2775, "lng": -88.3896, "type": "city"}, {"state": "WI", "pop": 1377104, "name": "Milwaukee", "lat": 43.064, "lng": -87.9669, "type": "city"}, {"state": "WI", "pop": 434967, "name": "Madison", "lat": 43.0809, "lng": -89.3921, "type": "city"}, {"state": "WI", "pop": 131517, "name": "Racine", "lat": 42.7274, "lng": -87.8135, "type": "city"}, {"state": "WI", "pop": 208670, "name": "Green Bay", "lat": 44.5151, "lng": -87.9895, "type": "city"}, {"state": "WI", "pop": 106681, "name": "Eau Claire", "lat": 44.8202, "lng": -91.4948, "type": "city"}, {"state": "WV", "pop": 198419, "name": "Huntington", "lat": 38.4109, "lng": -82.4344, "type": "city"}, {"state": "WV", "pop": 146462, "name": "Charleston", "lat": 38.3484, "lng": -81.6323, "type": "city"}, {"state": "FL", "pop": 286876, "name": "Lakeland", "lat": 28.0556, "lng": -81.9542, "type": "city"}, {"state": "FL", "pop": 165111, "name": "Ocala", "lat": 29.1803, "lng": -82.1487, "type": "city"}, {"state": "FL", "pop": 231412, "name": "Winter Haven", "lat": 28.0126, "lng": -81.7021, "type": "city"}, {"state": "FL", "pop": 168587, "name": "Pembroke Pines", "lat": 26.0127, "lng": -80.3384, "type": "city"}, {"state": "FL", "pop": 422966, "name": "Port Saint Lucie", "lat": 27.2795, "lng": -80.3882, "type": "city"}, {"state": "FL", "pop": 114361, "name": "Clearwater", "lat": 27.9787, "lng": -82.7623, "type": "city"}, {"state": "FL", "pop": 147788, "name": "Panama City", "lat": 30.1985, "lng": -85.6153, "type": "city"}, {"state": "FL", "pop": 701487, "name": "Sarasota", "lat": 27.3391, "lng": -82.5439, "type": "city"}, {"state": "FL", "pop": 1757288, "name": "Orlando", "lat": 28.4801, "lng": -81.3448, "type": "city"}, {"state": "FL", "pop": 382869, "name": "Bonita Springs", "lat": 26.3557, "lng": -81.7859, "type": "city"}, {"state": "FL", "pop": 252825, "name": "Tallahassee", "lat": 30.4549, "lng": -84.2527, "type": "city"}, {"state": "FL", "pop": 146398, "name": "Leesburg", "lat": 28.7674, "lng": -81.8983, "type": "city"}, {"state": "FL", "pop": 6247425, "name": "Miami", "lat": 25.784, "lng": -80.2102, "type": "city"}, {"state": "FL", "pop": 190003, "name": "North Port", "lat": 27.0577, "lng": -82.1976, "type": "city"}, {"state": "FL", "pop": 108161, "name": "West Palm Beach", "lat": 26.7468, "lng": -80.1315, "type": "city"}, {"state": "FL", "pop": 395224, "name": "Palm Coast", "lat": 29.5403, "lng": -81.2468, "type": "city"}, {"state": "FL", "pop": 138449, "name": "Miramar", "lat": 25.9773, "lng": -80.3357, "type": "city"}, {"state": "FL", "pop": 483098, "name": "Palm Bay", "lat": 27.9861, "lng": -80.6628, "type": "city"}, {"state": "FL", "pop": 151998, "name": "Hollywood", "lat": 26.0293, "lng": -80.1679, "type": "city"}, {"state": "FL", "pop": 113058, "name": "Miami Gardens", "lat": 25.9433, "lng": -80.2425, "type": "city"}, {"state": "FL", "pop": 260999, "name": "Saint Petersburg", "lat": 27.7931, "lng": -82.6652, "type": "city"}, {"state": "FL", "pop": 109393, "name": "Pompano Beach", "lat": 26.2428, "lng": -80.1312, "type": "city"}, {"state": "FL", "pop": 617896, "name": "Cape Coral", "lat": 26.644, "lng": -81.9961, "type": "city"}, {"state": "FL", "pop": 352187, "name": "Pensacola", "lat": 30.4427, "lng": -87.1886, "type": "city"}, {"state": "FL", "pop": 192730, "name": "Deltona", "lat": 28.9051, "lng": -81.2134, "type": "city"}, {"state": "FL", "pop": 2744107, "name": "Tampa", "lat": 27.9937, "lng": -82.4454, "type": "city"}, {"state": "FL", "pop": 198702, "name": "Gainesville", "lat": 29.6814, "lng": -82.3454, "type": "city"}, {"state": "FL", "pop": 236387, "name": "Hialeah", "lat": 25.8696, "lng": -80.3045, "type": "city"}, {"state": "FL", "pop": 101871, "name": "Davie", "lat": 26.0789, "lng": -80.287, "type": "city"}, {"state": "FL", "pop": 178752, "name": "Fort Lauderdale", "lat": 26.1412, "lng": -80.1464, "type": "city"}, {"state": "FL", "pop": 365099, "name": "Kissimmee", "lat": 28.3042, "lng": -81.4164, "type": "city"}, {"state": "FL", "pop": 130059, "name": "Coral Springs", "lat": 26.2702, "lng": -80.2593, "type": "city"}, {"state": "FL", "pop": 1141459, "name": "Jacksonville", "lat": 30.3322, "lng": -81.6749, "type": "city"}, {"state": "NH", "pop": 159744, "name": "Manchester", "lat": 42.9844, "lng": -71.4445, "type": "city"}, {"state": "NH", "pop": 230061, "name": "Nashua", "lat": 42.7492, "lng": -71.491, "type": "city"}, {"state": "NJ", "pop": 147000, "name": "Paterson", "lat": 40.9147, "lng": -74.1624, "type": "city"}, {"state": "NJ", "pop": 128640, "name": "Elizabeth", "lat": 40.6655, "lng": -74.1918, "type": "city"}, {"state": "NJ", "pop": 264152, "name": "Jersey City", "lat": 40.7161, "lng": -74.0683, "type": "city"}, {"state": "NJ", "pop": 293697, "name": "Trenton", "lat": 40.2237, "lng": -74.764, "type": "city"}, {"state": "NJ", "pop": 281764, "name": "Newark", "lat": 40.7242, "lng": -74.1724, "type": "city"}, {"state": "NJ", "pop": 243285, "name": "Atlantic City", "lat": 39.3795, "lng": -74.4524, "type": "city"}, {"state": "NM", "pop": 110208, "name": "Santa Fe", "lat": 35.6619, "lng": -105.9818, "type": "city"}, {"state": "NM", "pop": 759517, "name": "Albuquerque", "lat": 35.1055, "lng": -106.6476, "type": "city"}, {"state": "NM", "pop": 134050, "name": "Las Cruces", "lat": 32.3265, "lng": -106.7893, "type": "city"}, {"state": "TX", "pop": 163656, "name": "Frisco", "lat": 33.1551, "lng": -96.8219, "type": "city"}, {"state": "TX", "pop": 185680, "name": "Waco", "lat": 31.5597, "lng": -97.1882, "type": "city"}, {"state": "TX", "pop": 153351, "name": "Pasadena", "lat": 29.6583, "lng": -95.1498, "type": "city"}, {"state": "TX", "pop": 238289, "name": "Irving", "lat": 32.8584, "lng": -96.9702, "type": "city"}, {"state": "TX", "pop": 392772, "name": "Arlington", "lat": 32.6998, "lng": -97.1251, "type": "city"}, {"state": "TX", "pop": 854113, "name": "Fort Worth", "lat": 32.7813, "lng": -97.3466, "type": "city"}, {"state": "TX", "pop": 261076, "name": "Lubbock", "lat": 33.5665, "lng": -101.8867, "type": "city"}, {"state": "TX", "pop": 341570, "name": "Corpus Christi", "lat": 27.7173, "lng": -97.3822, "type": "city"}, {"state": "TX", "pop": 104659, "name": "Lewisville", "lat": 33.0453, "lng": -96.9823, "type": "city"}, {"state": "TX", "pop": 798187, "name": "McAllen", "lat": 26.2203, "lng": -98.2457, "type": "city"}, {"state": "TX", "pop": 100472, "name": "San Angelo", "lat": 31.4424, "lng": -100.4503, "type": "city"}, {"state": "TX", "pop": 133351, "name": "Carrollton", "lat": 32.9885, "lng": -96.9001, "type": "city"}, {"state": "TX", "pop": 223422, "name": "McKinney", "lat": 33.1989, "lng": -96.6678, "type": "city"}, {"state": "TX", "pop": 256752, "name": "Laredo", "lat": 27.5536, "lng": -99.489, "type": "city"}, {"state": "TX", "pop": 100852, "name": "Longview", "lat": 32.5192, "lng": -94.7622, "type": "city"}, {"state": "TX", "pop": 157732, "name": "Port Arthur", "lat": 29.8554, "lng": -93.9264, "type": "city"}, {"state": "TX", "pop": 205821, "name": "Amarillo", "lat": 35.1999, "lng": -101.8297, "type": "city"}, {"state": "TX", "pop": 286057, "name": "Plano", "lat": 33.0502, "lng": -96.7487, "type": "city"}, {"state": "TX", "pop": 143736, "name": "Mesquite", "lat": 32.7621, "lng": -96.5888, "type": "city"}, {"state": "TX", "pop": 234943, "name": "Garland", "lat": 32.91, "lng": -96.6305, "type": "city"}, {"state": "TX", "pop": 147935, "name": "Beaumont", "lat": 30.0849, "lng": -94.1451, "type": "city"}, {"state": "TX", "pop": 845059, "name": "El Paso", "lat": 31.8478, "lng": -106.431, "type": "city"}, {"state": "TX", "pop": 432200, "name": "Denton", "lat": 33.2165, "lng": -97.1411, "type": "city"}, {"state": "TX", "pop": 137119, "name": "Harlingen", "lat": 26.1914, "lng": -97.6977, "type": "city"}, {"state": "TX", "pop": 149088, "name": "Odessa", "lat": 31.8831, "lng": -102.3407, "type": "city"}, {"state": "TX", "pop": 120892, "name": "Round Rock", "lat": 30.5253, "lng": -97.6659, "type": "city"}, {"state": "TX", "pop": 5634307, "name": "Dallas", "lat": 32.7938, "lng": -96.7659, "type": "city"}, {"state": "TX", "pop": 140857, "name": "Tyler", "lat": 32.3184, "lng": -95.3065, "type": "city"}, {"state": "TX", "pop": 142680, "name": "Midland", "lat": 32.0278, "lng": -102.1107, "type": "city"}, {"state": "TX", "pop": 1633847, "name": "Austin", "lat": 30.3038, "lng": -97.7545, "type": "city"}, {"state": "TX", "pop": 113847, "name": "Texas City", "lat": 29.4127, "lng": -94.9658, "type": "city"}, {"state": "TX", "pop": 115285, "name": "Abilene", "lat": 32.4543, "lng": -99.7384, "type": "city"}, {"state": "TX", "pop": 100641, "name": "Temple", "lat": 31.1077, "lng": -97.3899, "type": "city"}, {"state": "TX", "pop": 102010, "name": "League City", "lat": 29.4873, "lng": -95.109, "type": "city"}, {"state": "TX", "pop": 113347, "name": "Richardson", "lat": 32.9717, "lng": -96.7092, "type": "city"}, {"state": "TX", "pop": 5424720, "name": "Houston", "lat": 29.7871, "lng": -95.3936, "type": "city"}, {"state": "TX", "pop": 204710, "name": "College Station", "lat": 30.5857, "lng": -96.296, "type": "city"}, {"state": "TX", "pop": 190682, "name": "Grand Prairie", "lat": 32.6869, "lng": -97.0209, "type": "city"}, {"state": "TX", "pop": 243947, "name": "Killeen", "lat": 31.0758, "lng": -97.7286, "type": "city"}, {"state": "TX", "pop": 228534, "name": "Brownsville", "lat": 25.9981, "lng": -97.4566, "type": "city"}, {"state": "TX", "pop": 113570, "name": "Pearland", "lat": 29.5585, "lng": -95.3201, "type": "city"}, {"state": "TX", "pop": 1976787, "name": "San Antonio", "lat": 29.4722, "lng": -98.5247, "type": "city"}, {"state": "LA", "pop": 146174, "name": "Houma", "lat": 29.5799, "lng": -90.7058, "type": "city"}, {"state": "LA", "pop": 117673, "name": "Monroe", "lat": 32.5184, "lng": -92.0775, "type": "city"}, {"state": "LA", "pop": 291749, "name": "Shreveport", "lat": 32.4659, "lng": -93.7959, "type": "city"}, {"state": "LA", "pop": 1024421, "name": "New Orleans", "lat": 30.0687, "lng": -89.9288, "type": "city"}, {"state": "LA", "pop": 267376, "name": "Lafayette", "lat": 30.2097, "lng": -92.0314, "type": "city"}, {"state": "LA", "pop": 589675, "name": "Baton Rouge", "lat": 30.4422, "lng": -91.1314, "type": "city"}, {"state": "LA", "pop": 153097, "name": "Lake Charles", "lat": 30.203, "lng": -93.215, "type": "city"}, {"state": "NC", "pop": 126491, "name": "Burlington", "lat": 36.0761, "lng": -79.4692, "type": "city"}, {"state": "NC", "pop": 215120, "name": "Hickory", "lat": 35.7425, "lng": -81.323, "type": "city"}, {"state": "NC", "pop": 1438351, "name": "Charlotte", "lat": 35.208, "lng": -80.8308, "type": "city"}, {"state": "NC", "pop": 1005457, "name": "Raleigh", "lat": 35.8323, "lng": -78.6441, "type": "city"}, {"state": "NC", "pop": 244273, "name": "Concord", "lat": 35.3939, "lng": -80.6358, "type": "city"}, {"state": "NC", "pop": 162320, "name": "Cary", "lat": 35.7815, "lng": -78.8162, "type": "city"}, {"state": "NC", "pop": 316764, "name": "Fayetteville", "lat": 35.0847, "lng": -78.9777, "type": "city"}, {"state": "NC", "pop": 178477, "name": "Gastonia", "lat": 35.2495, "lng": -81.1856, "type": "city"}, {"state": "NC", "pop": 412490, "name": "Winston-Salem", "lat": 36.1029, "lng": -80.261, "type": "city"}, {"state": "NC", "pop": 400379, "name": "Durham", "lat": 35.9801, "lng": -78.9045, "type": "city"}, {"state": "NC", "pop": 177412, "name": "High Point", "lat": 35.9899, "lng": -79.9937, "type": "city"}, {"state": "NC", "pop": 127464, "name": "Greenville", "lat": 35.5958, "lng": -77.3764, "type": "city"}, {"state": "NC", "pop": 299892, "name": "Asheville", "lat": 35.5703, "lng": -82.5536, "type": "city"}, {"state": "NC", "pop": 331894, "name": "Greensboro", "lat": 36.096, "lng": -79.8275, "type": "city"}, {"state": "NC", "pop": 101865, "name": "Jacksonville", "lat": 34.7323, "lng": -77.3962, "type": "city"}, {"state": "NC", "pop": 242770, "name": "Wilmington", "lat": 34.21, "lng": -77.886, "type": "city"}, {"state": "ND", "pop": 202146, "name": "Fargo", "lat": 46.8654, "lng": -96.829, "type": "city"}, {"state": "NE", "pop": 280741, "name": "Lincoln", "lat": 40.8102, "lng": -96.6808, "type": "city"}, {"state": "NE", "pop": 792463, "name": "Omaha", "lat": 41.2634, "lng": -96.0453, "type": "city"}, {"state": "TN", "pop": 1069661, "name": "Memphis", "lat": 35.1047, "lng": -89.9773, "type": "city"}, {"state": "TN", "pop": 403618, "name": "Chattanooga", "lat": 35.0657, "lng": -85.2488, "type": "city"}, {"state": "TN", "pop": 179367, "name": "Clarksville", "lat": 36.5696, "lng": -87.3428, "type": "city"}, {"state": "TN", "pop": 581787, "name": "Knoxville", "lat": 35.969, "lng": -83.9498, "type": "city"}, {"state": "TN", "pop": 127134, "name": "Johnson City", "lat": 36.3404, "lng": -82.3803, "type": "city"}, {"state": "TN", "pop": 1065078, "name": "Nashville", "lat": 36.1714, "lng": -86.7844, "type": "city"}, {"state": "TN", "pop": 116745, "name": "Kingsport", "lat": 36.522, "lng": -82.5452, "type": "city"}, {"state": "TN", "pop": 161634, "name": "Murfreesboro", "lat": 35.851, "lng": -86.4093, "type": "city"}, {"state": "NY", "pop": 407208, "name": "Syracuse", "lat": 43.0409, "lng": -76.1438, "type": "city"}, {"state": "NY", "pop": 114350, "name": "Utica", "lat": 43.0961, "lng": -75.226, "type": "city"}, {"state": "NY", "pop": 920136, "name": "Buffalo", "lat": 42.9016, "lng": -78.8487, "type": "city"}, {"state": "NY", "pop": 2333054, "name": "Queens", "lat": 40.7498, "lng": -73.7976, "type": "city"}, {"state": "NY", "pop": 596419, "name": "Albany", "lat": 42.6664, "lng": -73.7987, "type": "city"}, {"state": "NY", "pop": 714852, "name": "Rochester", "lat": 43.1681, "lng": -77.6162, "type": "city"}, {"state": "NY", "pop": 19164071, "name": "New York", "lat": 40.6943, "lng": -73.9249, "type": "city"}, {"state": "NY", "pop": 1455720, "name": "Bronx", "lat": 40.8501, "lng": -73.8662, "type": "city"}, {"state": "NY", "pop": 391552, "name": "Poughkeepsie", "lat": 41.6949, "lng": -73.921, "type": "city"}, {"state": "NY", "pop": 200807, "name": "Yonkers", "lat": 40.9466, "lng": -73.8674, "type": "city"}, {"state": "NY", "pop": 2629150, "name": "Brooklyn", "lat": 40.6501, "lng": -73.9496, "type": "city"}, {"state": "NY", "pop": 152392, "name": "Binghamton", "lat": 42.1014, "lng": -75.9092, "type": "city"}, {"state": "NY", "pop": 1643734, "name": "Manhattan", "lat": 40.7834, "lng": -73.9662, "type": "city"}, {"state": "NY", "pop": 476015, "name": "Staten Island", "lat": 40.5834, "lng": -74.1496, "type": "city"}, {"state": "PA", "pop": 438995, "name": "Harrisburg", "lat": 40.2752, "lng": -76.8843, "type": "city"}, {"state": "PA", "pop": 109052, "name": "Pottstown", "lat": 40.2508, "lng": -75.6445, "type": "city"}, {"state": "PA", "pop": 232796, "name": "York", "lat": 39.9651, "lng": -76.7315, "type": "city"}, {"state": "PA", "pop": 190443, "name": "Erie", "lat": 42.1167, "lng": -80.0731, "type": "city"}, {"state": "PA", "pop": 5591554, "name": "Philadelphia", "lat": 40.0076, "lng": -75.134, "type": "city"}, {"state": "PA", "pop": 401205, "name": "Lancaster", "lat": 40.0421, "lng": -76.3012, "type": "city"}, {"state": "PA", "pop": 387448, "name": "Scranton", "lat": 41.4043, "lng": -75.6649, "type": "city"}, {"state": "PA", "pop": 264736, "name": "Reading", "lat": 40.34, "lng": -75.9266, "type": "city"}, {"state": "PA", "pop": 1722206, "name": "Pittsburgh", "lat": 40.4396, "lng": -79.9763, "type": "city"}, {"state": "PA", "pop": 678169, "name": "Allentown", "lat": 40.5962, "lng": -75.4756, "type": "city"}, {"state": "CA", "pop": 152494, "name": "Pomona", "lat": 34.0585, "lng": -117.7625, "type": "city"}, {"state": "CA", "pop": 120288, "name": "Redding", "lat": 40.5698, "lng": -122.365, "type": "city"}, {"state": "CA", "pop": 115807, "name": "El Monte", "lat": 34.0739, "lng": -118.0291, "type": "city"}, {"state": "CA", "pop": 104447, "name": "Burbank", "lat": 34.188, "lng": -118.3234, "type": "city"}, {"state": "CA", "pop": 266122, "name": "Irvine", "lat": 33.6772, "lng": -117.7738, "type": "city"}, {"state": "CA", "pop": 193126, "name": "Salinas", "lat": 36.6881, "lng": -121.6316, "type": "city"}, {"state": "CA", "pop": 172697, "name": "Vallejo", "lat": 38.1134, "lng": -122.2359, "type": "city"}, {"state": "CA", "pop": 402166, "name": "Indio", "lat": 33.7346, "lng": -116.2347, "type": "city"}, {"state": "CA", "pop": 567585, "name": "Bakersfield", "lat": 35.3528, "lng": -119.0354, "type": "city"}, {"state": "CA", "pop": 216239, "name": "San Bernardino", "lat": 34.1412, "lng": -117.2936, "type": "city"}, {"state": "CA", "pop": 111733, "name": "El Centro", "lat": 32.7873, "lng": -115.5578, "type": "city"}, {"state": "CA", "pop": 267172, "name": "Chula Vista", "lat": 32.6281, "lng": -117.0144, "type": "city"}, {"state": "CA", "pop": 140721, "name": "Fullerton", "lat": 33.8841, "lng": -117.9279, "type": "city"}, {"state": "CA", "pop": 346449, "name": "Victorville", "lat": 34.5277, "lng": -117.3537, "type": "city"}, {"state": "CA", "pop": 351043, "name": "Anaheim", "lat": 33.839, "lng": -117.8572, "type": "city"}, {"state": "CA", "pop": 113054, "name": "Temecula", "lat": 33.4928, "lng": -117.1315, "type": "city"}, {"state": "CA", "pop": 166785, "name": "Corona", "lat": 33.8623, "lng": -117.5642, "type": "city"}, {"state": "CA", "pop": 690895, "name": "Fresno", "lat": 36.7834, "lng": -119.7933, "type": "city"}, {"state": "CA", "pop": 142059, "name": "Pasadena", "lat": 34.1598, "lng": -118.1389, "type": "city"}, {"state": "CA", "pop": 145665, "name": "Fairfield", "lat": 38.2593, "lng": -122.0319, "type": "city"}, {"state": "CA", "pop": 602851, "name": "Mission Viejo", "lat": 33.6095, "lng": -117.655, "type": "city"}, {"state": "CA", "pop": 101659, "name": "Vista", "lat": 33.1895, "lng": -117.2386, "type": "city"}, {"state": "CA", "pop": 139270, "name": "Santa Maria", "lat": 34.9334, "lng": -120.4433, "type": "city"}, {"state": "CA", "pop": 203655, "name": "Santa Barbara", "lat": 34.4285, "lng": -119.7202, "type": "city"}, {"state": "CA", "pop": 140504, "name": "Orange", "lat": 33.8038, "lng": -117.8219, "type": "city"}, {"state": "CA", "pop": 152771, "name": "Sunnyvale", "lat": 37.3846, "lng": -122.0261, "type": "city"}, {"state": "CA", "pop": 112822, "name": "Costa Mesa", "lat": 33.6667, "lng": -117.9135, "type": "city"}, {"state": "CA", "pop": 132671, "name": "Roseville", "lat": 38.7683, "lng": -121.3164, "type": "city"}, {"state": "CA", "pop": 106100, "name": "Turlock", "lat": 37.5053, "lng": -120.8588, "type": "city"}, {"state": "CA", "pop": 111004, "name": "Gilroy", "lat": 37.0048, "lng": -121.5843, "type": "city"}, {"state": "CA", "pop": 106178, "name": "Norwalk", "lat": 33.9069, "lng": -118.0829, "type": "city"}, {"state": "CA", "pop": 173212, "name": "Ontario", "lat": 34.0393, "lng": -117.6064, "type": "city"}, {"state": "CA", "pop": 649437, "name": "Concord", "lat": 37.9722, "lng": -122.0016, "type": "city"}, {"state": "CA", "pop": 147195, "name": "Torrance", "lat": 33.8346, "lng": -118.3417, "type": "city"}, {"state": "CA", "pop": 300780, "name": "Antioch", "lat": 37.9789, "lng": -121.7958, "type": "city"}, {"state": "CA", "pop": 169743, "name": "Elk Grove", "lat": 38.416, "lng": -121.3841, "type": "city"}, {"state": "CA", "pop": 1830061, "name": "Sacramento", "lat": 38.5666, "lng": -121.4683, "type": "city"}, {"state": "CA", "pop": 118670, "name": "Seaside", "lat": 36.6224, "lng": -121.8191, "type": "city"}, {"state": "CA", "pop": 209665, "name": "Fontana", "lat": 34.0967, "lng": -117.4599, "type": "city"}, {"state": "CA", "pop": 106472, "name": "Daly City", "lat": 37.6863, "lng": -122.4684, "type": "city"}, {"state": "CA", "pop": 2065627, "name": "Riverside", "lat": 33.9382, "lng": -117.3949, "type": "city"}, {"state": "CA", "pop": 103768, "name": "El Cajon", "lat": 32.8017, "lng": -116.9604, "type": "city"}, {"state": "CA", "pop": 143272, "name": "Merced", "lat": 37.3057, "lng": -120.4779, "type": "city"}, {"state": "CA", "pop": 476630, "name": "Murrieta", "lat": 33.572, "lng": -117.1909, "type": "city"}, {"state": "CA", "pop": 103314, "name": "Rialto", "lat": 34.1128, "lng": -117.3885, "type": "city"}, {"state": "CA", "pop": 321699, "name": "Santa Rosa", "lat": 38.4465, "lng": -122.7059, "type": "city"}, {"state": "CA", "pop": 157356, "name": "Palmdale", "lat": 34.5945, "lng": -118.1058, "type": "city"}, {"state": "CA", "pop": 107847, "name": "West Covina", "lat": 34.0555, "lng": -117.9112, "type": "city"}, {"state": "CA", "pop": 470130, "name": "Long Beach", "lat": 33.8059, "lng": -118.161, "type": "city"}, {"state": "CA", "pop": 176037, "name": "Santa Cruz", "lat": 36.9788, "lng": -122.0346, "type": "city"}, {"state": "CA", "pop": 390117, "name": "Stockton", "lat": 37.9766, "lng": -121.3111, "type": "city"}, {"state": "CA", "pop": 348760, "name": "Lancaster", "lat": 34.6934, "lng": -118.1753, "type": "city"}, {"state": "CA", "pop": 127308, "name": "Simi Valley", "lat": 34.2663, "lng": -118.749, "type": "city"}, {"state": "CA", "pop": 233136, "name": "Fremont", "lat": 37.5256, "lng": -121.987, "type": "city"}, {"state": "CA", "pop": 109813, "name": "Richmond", "lat": 37.9477, "lng": -122.339, "type": "city"}, {"state": "CA", "pop": 151613, "name": "Escondido", "lat": 33.1349, "lng": -117.0721, "type": "city"}, {"state": "CA", "pop": 266958, "name": "Santa Clarita", "lat": 34.4119, "lng": -118.5036, "type": "city"}, {"state": "CA", "pop": 3548847, "name": "San Francisco", "lat": 37.7561, "lng": -122.4429, "type": "city"}, {"state": "CA", "pop": 334217, "name": "Santa Ana", "lat": 33.7366, "lng": -117.8819, "type": "city"}, {"state": "CA", "pop": 205499, "name": "Moreno Valley", "lat": 33.9244, "lng": -117.2045, "type": "city"}, {"state": "CA", "pop": 113267, "name": "Downey", "lat": 33.9379, "lng": -118.1312, "type": "city"}, {"state": "CA", "pop": 175066, "name": "Hemet", "lat": 33.7352, "lng": -116.9946, "type": "city"}, {"state": "CA", "pop": 200831, "name": "Glendale", "lat": 34.1818, "lng": -118.2468, "type": "city"}, {"state": "CA", "pop": 121240, "name": "Berkeley", "lat": 37.8723, "lng": -122.276, "type": "city"}, {"state": "CA", "pop": 176534, "name": "Rancho Cucamonga", "lat": 34.1246, "lng": -117.5662, "type": "city"}, {"state": "CA", "pop": 420005, "name": "Oakland", "lat": 37.7903, "lng": -122.2165, "type": "city"}, {"state": "CA", "pop": 104302, "name": "Chico", "lat": 39.7568, "lng": -121.816, "type": "city"}, {"state": "CA", "pop": 174858, "name": "Garden Grove", "lat": 33.7787, "lng": -117.9601, "type": "city"}, {"state": "CA", "pop": 103959, "name": "San Mateo", "lat": 37.5522, "lng": -122.3122, "type": "city"}, {"state": "CA", "pop": 175464, "name": "Oceanside", "lat": 33.2247, "lng": -117.3083, "type": "city"}, {"state": "CA", "pop": 3181172, "name": "San Diego", "lat": 32.8312, "lng": -117.1225, "type": "city"}, {"state": "CA", "pop": 1804359, "name": "San Jose", "lat": 37.302, "lng": -121.8488, "type": "city"}, {"state": "CA", "pop": 113952, "name": "Carlsbad", "lat": 33.1246, "lng": -117.2836, "type": "city"}, {"state": "CA", "pop": 106583, "name": "Clovis", "lat": 36.8283, "lng": -119.6851, "type": "city"}, {"state": "CA", "pop": 385837, "name": "Oxnard", "lat": 34.1961, "lng": -119.1821, "type": "city"}, {"state": "CA", "pop": 218548, "name": "Thousand Oaks", "lat": 34.1914, "lng": -118.8755, "type": "city"}, {"state": "CA", "pop": 231159, "name": "Visalia", "lat": 36.3271, "lng": -119.3265, "type": "city"}, {"state": "CA", "pop": 12740381, "name": "Los Angeles", "lat": 34.114, "lng": -118.4068, "type": "city"}, {"state": "CA", "pop": 377755, "name": "Modesto", "lat": 37.6371, "lng": -121.003, "type": "city"}, {"state": "CA", "pop": 125948, "name": "Santa Clara", "lat": 37.3646, "lng": -121.9679, "type": "city"}, {"state": "CA", "pop": 110654, "name": "Inglewood", "lat": 33.9566, "lng": -118.3444, "type": "city"}, {"state": "CA", "pop": 200652, "name": "Huntington Beach", "lat": 33.696, "lng": -118.0023, "type": "city"}, {"state": "CA", "pop": 158937, "name": "Hayward", "lat": 37.6327, "lng": -122.0776, "type": "city"}, {"state": "CA", "pop": 120159, "name": "Yuba City", "lat": 39.1357, "lng": -121.6381, "type": "city"}, {"state": "NV", "pop": 292969, "name": "Henderson", "lat": 36.0145, "lng": -115.0362, "type": "city"}, {"state": "NV", "pop": 2044731, "name": "Las Vegas", "lat": 36.2288, "lng": -115.2603, "type": "city"}, {"state": "NV", "pop": 238702, "name": "North Las Vegas", "lat": 36.288, "lng": -115.0901, "type": "city"}, {"state": "NV", "pop": 427007, "name": "Reno", "lat": 39.5487, "lng": -119.8486, "type": "city"}, {"state": "CO", "pop": 2741534, "name": "Denver", "lat": 39.7621, "lng": -104.8759, "type": "city"}, {"state": "CO", "pop": 136703, "name": "Thornton", "lat": 39.9202, "lng": -104.9445, "type": "city"}, {"state": "CO", "pop": 154393, "name": "Lakewood", "lat": 39.6977, "lng": -105.117, "type": "city"}, {"state": "CO", "pop": 109932, "name": "Centennial", "lat": 39.5927, "lng": -104.8674, "type": "city"}, {"state": "CO", "pop": 624789, "name": "Colorado Springs", "lat": 38.8673, "lng": -104.7605, "type": "city"}, {"state": "CO", "pop": 113875, "name": "Westminster", "lat": 39.8837, "lng": -105.0627, "type": "city"}, {"state": "CO", "pop": 135389, "name": "Grand Junction", "lat": 39.0881, "lng": -108.5675, "type": "city"}, {"state": "CO", "pop": 117453, "name": "Arvada", "lat": 39.8321, "lng": -105.1508, "type": "city"}, {"state": "CO", "pop": 361710, "name": "Aurora", "lat": 39.7085, "lng": -104.7274, "type": "city"}, {"state": "CO", "pop": 141280, "name": "Pueblo", "lat": 38.2701, "lng": -104.613, "type": "city"}, {"state": "CO", "pop": 301581, "name": "Fort Collins", "lat": 40.5487, "lng": -105.0656, "type": "city"}, {"state": "CO", "pop": 127190, "name": "Boulder", "lat": 40.0274, "lng": -105.2514, "type": "city"}, {"state": "CO", "pop": 131900, "name": "Greeley", "lat": 40.415, "lng": -104.7697, "type": "city"}, {"state": "AL", "pop": 153060, "name": "Tuscaloosa", "lat": 33.2349, "lng": -87.5268, "type": "city"}, {"state": "AL", "pop": 256554, "name": "Montgomery", "lat": 32.347, "lng": -86.2663, "type": "city"}, {"state": "AL", "pop": 322496, "name": "Mobile", "lat": 30.6782, "lng": -88.1161, "type": "city"}, {"state": "AL", "pop": 749299, "name": "Birmingham", "lat": 33.5276, "lng": -86.7986, "type": "city"}, {"state": "AL", "pop": 307319, "name": "Huntsville", "lat": 34.699, "lng": -86.6412, "type": "city"}, {"state": "AR", "pop": 442554, "name": "Little Rock", "lat": 34.7255, "lng": -92.3584, "type": "city"}, {"state": "AR", "pop": 336152, "name": "Fayetteville", "lat": 36.0713, "lng": -94.166, "type": "city"}, {"state": "AR", "pop": 125699, "name": "Fort Smith", "lat": 35.3494, "lng": -94.3695, "type": "city"}, {"state": "VT", "pop": 108331, "name": "Burlington", "lat": 44.4877, "lng": -73.2314, "type": "city"}, {"state": "IL", "pop": 8639278, "name": "Chicago", "lat": 41.8373, "lng": -87.6861, "type": "city"}, {"state": "IL", "pop": 112123, "name": "Elgin", "lat": 42.0385, "lng": -88.3227, "type": "city"}, {"state": "IL", "pop": 147122, "name": "Naperville", "lat": 41.7483, "lng": -88.1656, "type": "city"}, {"state": "IL", "pop": 265218, "name": "Peoria", "lat": 40.7518, "lng": -89.6153, "type": "city"}, {"state": "IL", "pop": 148262, "name": "Joliet", "lat": 41.5201, "lng": -88.1503, "type": "city"}, {"state": "IL", "pop": 160570, "name": "Springfield", "lat": 39.7713, "lng": -89.6538, "type": "city"}, {"state": "IL", "pop": 155368, "name": "Champaign", "lat": 40.1148, "lng": -88.2731, "type": "city"}, {"state": "IL", "pop": 201110, "name": "Aurora", "lat": 41.7638, "lng": -88.2901, "type": "city"}, {"state": "IL", "pop": 286727, "name": "Rockford", "lat": 42.2594, "lng": -89.0646, "type": "city"}, {"state": "IL", "pop": 286350, "name": "Round Lake Beach", "lat": 42.379, "lng": -88.0811, "type": "city"}, {"state": "IL", "pop": 135015, "name": "Bloomington", "lat": 40.4756, "lng": -88.9698, "type": "city"}, {"state": "GA", "pop": 5080712, "name": "Atlanta", "lat": 33.7627, "lng": -84.4231, "type": "city"}, {"state": "GA", "pop": 389215, "name": "Augusta", "lat": 33.3644, "lng": -82.0708, "type": "city"}, {"state": "GA", "pop": 280692, "name": "Savannah", "lat": 32.0282, "lng": -81.1784, "type": "city"}, {"state": "GA", "pop": 148686, "name": "Warner Robins", "lat": 32.5981, "lng": -83.6528, "type": "city"}, {"state": "GA", "pop": 105703, "name": "Sandy Springs", "lat": 33.9366, "lng": -84.3703, "type": "city"}, {"state": "GA", "pop": 137582, "name": "Athens", "lat": 33.9508, "lng": -83.3689, "type": "city"}, {"state": "GA", "pop": 154859, "name": "Gainesville", "lat": 34.2903, "lng": -83.8299, "type": "city"}, {"state": "GA", "pop": 263737, "name": "Columbus", "lat": 32.51, "lng": -84.8771, "type": "city"}, {"state": "IN", "pop": 279698, "name": "South Bend", "lat": 41.6771, "lng": -86.269, "type": "city"}, {"state": "IN", "pop": 326814, "name": "Fort Wayne", "lat": 41.0885, "lng": -85.1436, "type": "city"}, {"state": "IN", "pop": 147181, "name": "Elkhart", "lat": 41.6919, "lng": -85.962, "type": "city"}, {"state": "IN", "pop": 157955, "name": "Lafayette", "lat": 40.399, "lng": -86.8592, "type": "city"}, {"state": "IN", "pop": 233353, "name": "Evansville", "lat": 37.9882, "lng": -87.5339, "type": "city"}, {"state": "IN", "pop": 114140, "name": "Bloomington", "lat": 39.1637, "lng": -86.5257, "type": "city"}, {"state": "IN", "pop": 1550488, "name": "Indianapolis", "lat": 39.7771, "lng": -86.1458, "type": "city"}, {"state": "IA", "pop": 288233, "name": "Davenport", "lat": 41.5558, "lng": -90.6052, "type": "city"}, {"state": "IA", "pop": 116891, "name": "Iowa City", "lat": 41.6558, "lng": -91.5304, "type": "city"}, {"state": "IA", "pop": 112635, "name": "Waterloo", "lat": 42.492, "lng": -92.3522, "type": "city"}, {"state": "IA", "pop": 476689, "name": "Des Moines", "lat": 41.5725, "lng": -93.6104, "type": "city"}, {"state": "IA", "pop": 184610, "name": "Cedar Rapids", "lat": 41.9667, "lng": -91.6781, "type": "city"}, {"state": "IA", "pop": 106740, "name": "Sioux City", "lat": 42.4959, "lng": -96.3901, "type": "city"}, {"state": "OK", "pop": 107403, "name": "Broken Arrow", "lat": 36.0367, "lng": -95.7808, "type": "city"}, {"state": "OK", "pop": 948154, "name": "Oklahoma City", "lat": 35.4677, "lng": -97.5138, "type": "city"}, {"state": "OK", "pop": 674211, "name": "Tulsa", "lat": 36.1284, "lng": -95.9037, "type": "city"}, {"state": "OK", "pop": 114444, "name": "Norman", "lat": 35.2335, "lng": -97.3471, "type": "city"}, {"state": "AZ", "pop": 246645, "name": "Scottsdale", "lat": 33.6872, "lng": -111.865, "type": "city"}, {"state": "AZ", "pop": 4054083, "name": "Phoenix", "lat": 33.5722, "lng": -112.0891, "type": "city"}, {"state": "AZ", "pop": 214235, "name": "Avondale", "lat": 33.3858, "lng": -112.3236, "type": "city"}, {"state": "AZ", "pop": 860333, "name": "Tucson", "lat": 32.1558, "lng": -110.8777, "type": "city"}, {"state": "AZ", "pop": 237133, "name": "Gilbert", "lat": 33.3103, "lng": -111.7463, "type": "city"}, {"state": "AZ", "pop": 484587, "name": "Mesa", "lat": 33.4016, "lng": -111.718, "type": "city"}, {"state": "AZ", "pop": 137936, "name": "Yuma", "lat": 32.599, "lng": -114.5489, "type": "city"}, {"state": "AZ", "pop": 247477, "name": "Chandler", "lat": 33.2828, "lng": -111.8517, "type": "city"}, {"state": "AZ", "pop": 245895, "name": "Glendale", "lat": 33.5797, "lng": -112.2246, "type": "city"}, {"state": "AZ", "pop": 132677, "name": "Surprise", "lat": 33.6802, "lng": -112.4525, "type": "city"}, {"state": "AZ", "pop": 164173, "name": "Peoria", "lat": 33.7844, "lng": -112.2989, "type": "city"}, {"state": "AZ", "pop": 182498, "name": "Tempe", "lat": 33.3881, "lng": -111.9318, "type": "city"}, {"state": "ID", "pop": 169761, "name": "Nampa", "lat": 43.5833, "lng": -116.5641, "type": "city"}, {"state": "ID", "pop": 379410, "name": "Boise", "lat": 43.5991, "lng": -116.2306, "type": "city"}, {"state": "ID", "pop": 112088, "name": "Coeur d'Alene", "lat": 47.7041, "lng": -116.7928, "type": "city"}, {"state": "CT", "pop": 190855, "name": "Waterbury", "lat": 41.5583, "lng": -73.0361, "type": "city"}, {"state": "CT", "pop": 934289, "name": "Bridgeport", "lat": 41.1909, "lng": -73.1958, "type": "city"}, {"state": "CT", "pop": 176649, "name": "Danbury", "lat": 41.4016, "lng": -73.471, "type": "city"}, {"state": "CT", "pop": 913587, "name": "Hartford", "lat": 41.7661, "lng": -72.6834, "type": "city"}, {"state": "CT", "pop": 563460, "name": "New Haven", "lat": 41.3112, "lng": -72.9245, "type": "city"}, {"state": "CT", "pop": 204360, "name": "Norwich", "lat": 41.5495, "lng": -72.0882, "type": "city"}, {"state": "CT", "pop": 129113, "name": "Stamford", "lat": 41.1035, "lng": -73.5583, "type": "city"}, {"state": "ME", "pop": 206193, "name": "Portland", "lat": 43.6772, "lng": -70.2713, "type": "city"}, {"state": "MD", "pop": 107026, "name": "Salisbury", "lat": 38.3755, "lng": -75.5883, "type": "city"}, {"state": "MD", "pop": 186377, "name": "Hagerstown", "lat": 39.6401, "lng": -77.7217, "type": "city"}, {"state": "MD", "pop": 152047, "name": "Frederick", "lat": 39.4334, "lng": -77.4154, "type": "city"}, {"state": "MD", "pop": 2181206, "name": "Baltimore", "lat": 39.3051, "lng": -76.6144, "type": "city"}, {"state": "MA", "pop": 4556916, "name": "Boston", "lat": 42.3189, "lng": -71.0838, "type": "city"}, {"state": "MA", "pop": 110651, "name": "Cambridge", "lat": 42.3758, "lng": -71.1184, "type": "city"}, {"state": "MA", "pop": 149390, "name": "New Bedford", "lat": 41.6697, "lng": -70.9428, "type": "city"}, {"state": "MA", "pop": 495856, "name": "Worcester", "lat": 42.2705, "lng": -71.8079, "type": "city"}, {"state": "MA", "pop": 625300, "name": "Springfield", "lat": 42.1155, "lng": -72.5395, "type": "city"}, {"state": "MA", "pop": 110558, "name": "Lowell", "lat": 42.6389, "lng": -71.3217, "type": "city"}, {"state": "MA", "pop": 119538, "name": "Leominster", "lat": 42.5209, "lng": -71.7717, "type": "city"}, {"state": "OH", "pop": 492237, "name": "Toledo", "lat": 41.6639, "lng": -83.582, "type": "city"}, {"state": "OH", "pop": 565311, "name": "Akron", "lat": 41.0802, "lng": -81.5219, "type": "city"}, {"state": "OH", "pop": 1731637, "name": "Cleveland", "lat": 41.4766, "lng": -81.6805, "type": "city"}, {"state": "OH", "pop": 372039, "name": "Youngstown", "lat": 41.0994, "lng": -80.6463, "type": "city"}, {"state": "OH", "pop": 272768, "name": "Canton", "lat": 40.8082, "lng": -81.3678, "type": "city"}, {"state": "OH", "pop": 1495146, "name": "Columbus", "lat": 39.9859, "lng": -82.9852, "type": "city"}, {"state": "OH", "pop": 1634573, "name": "Cincinnati", "lat": 39.1412, "lng": -84.506, "type": "city"}, {"state": "OH", "pop": 179926, "name": "Lorain", "lat": 41.4409, "lng": -82.184, "type": "city"}, {"state": "OH", "pop": 718772, "name": "Dayton", "lat": 39.7798, "lng": -84.1999, "type": "city"}, {"state": "UT", "pop": 136574, "name": "West Valley City", "lat": 40.6889, "lng": -112.0115, "type": "city"}, {"state": "UT", "pop": 113699, "name": "West Jordan", "lat": 40.6024, "lng": -112.0008, "type": "city"}, {"state": "UT", "pop": 1061156, "name": "Salt Lake City", "lat": 40.7774, "lng": -111.9301, "type": "city"}, {"state": "UT", "pop": 571457, "name": "Ogden", "lat": 41.2281, "lng": -111.9677, "type": "city"}, {"state": "UT", "pop": 111090, "name": "Saint George", "lat": 37.0769, "lng": -113.5771, "type": "city"}, {"state": "UT", "pop": 501690, "name": "Provo", "lat": 40.2458, "lng": -111.6457, "type": "city"}, {"state": "MO", "pop": 138675, "name": "Columbia", "lat": 38.9475, "lng": -92.3263, "type": "city"}, {"state": "MO", "pop": 2096990, "name": "Saint Louis", "lat": 38.6358, "lng": -90.2451, "type": "city"}, {"state": "MO", "pop": 287124, "name": "Springfield", "lat": 37.1943, "lng": -93.2916, "type": "city"}, {"state": "MO", "pop": 117030, "name": "Independence", "lat": 39.0871, "lng": -94.3503, "type": "city"}, {"state": "MO", "pop": 1590762, "name": "Kansas City", "lat": 39.1239, "lng": -94.5541, "type": "city"}, {"state": "MN", "pop": 113649, "name": "Saint Cloud", "lat": 45.5339, "lng": -94.1718, "type": "city"}, {"state": "MN", "pop": 114976, "name": "Rochester", "lat": 44.0152, "lng": -92.4776, "type": "city"}, {"state": "MN", "pop": 2866604, "name": "Minneapolis", "lat": 44.9635, "lng": -93.2679, "type": "city"}, {"state": "MN", "pop": 120418, "name": "Duluth", "lat": 46.7797, "lng": -92.1334, "type": "city"}, {"state": "MN", "pop": 302398, "name": "Saint Paul", "lat": 44.9477, "lng": -93.104, "type": "city"}, {"state": "MI", "pop": 101421, "name": "Holland", "lat": 42.7676, "lng": -86.0984, "type": "city"}, {"state": "MI", "pop": 123555, "name": "South Lyon", "lat": 42.4613, "lng": -83.6526, "type": "city"}, {"state": "MI", "pop": 161058, "name": "Muskegon", "lat": 43.228, "lng": -86.256, "type": "city"}, {"state": "MI", "pop": 595467, "name": "Grand Rapids", "lat": 42.9615, "lng": -85.6557, "type": "city"}, {"state": "MI", "pop": 324421, "name": "Ann Arbor", "lat": 42.2757, "lng": -83.7312, "type": "city"}, {"state": "MI", "pop": 214583, "name": "Kalamazoo", "lat": 42.2749, "lng": -85.5882, "type": "city"}, {"state": "MI", "pop": 120088, "name": "Saginaw", "lat": 43.4199, "lng": -83.95, "type": "city"}, {"state": "MI", "pop": 318278, "name": "Lansing", "lat": 42.7142, "lng": -84.5598, "type": "city"}, {"state": "MI", "pop": 132427, "name": "Sterling Heights", "lat": 42.581, "lng": -83.0304, "type": "city"}, {"state": "MI", "pop": 338616, "name": "Flint", "lat": 43.0235, "lng": -83.6921, "type": "city"}, {"state": "MI", "pop": 135125, "name": "Warren", "lat": 42.4934, "lng": -83.027, "type": "city"}, {"state": "MI", "pop": 3520589, "name": "Detroit", "lat": 42.3834, "lng": -83.1024, "type": "city"}, {"state": "RI", "pop": 1198789, "name": "Providence", "lat": 41.8229, "lng": -71.4186, "type": "city"}, {"state": "KS", "pop": 188966, "name": "Overland Park", "lat": 38.8871, "lng": -94.6871, "type": "city"}, {"state": "KS", "pop": 149220, "name": "Topeka", "lat": 39.0347, "lng": -95.6955, "type": "city"}, {"state": "KS", "pop": 151709, "name": "Kansas City", "lat": 39.1234, "lng": -94.7443, "type": "city"}, {"state": "KS", "pop": 135473, "name": "Olathe", "lat": 38.884, "lng": -94.8194, "type": "city"}, {"state": "KS", "pop": 482205, "name": "Wichita", "lat": 37.6894, "lng": -97.344, "type": "city"}, {"state": "MT", "pop": 121550, "name": "Billings", "lat": 45.7892, "lng": -108.5498, "type": "city"}, {"state": "MS", "pop": 222131, "name": "Gulfport", "lat": 30.4271, "lng": -89.0703, "type": "city"}, {"state": "MS", "pop": 342607, "name": "Jackson", "lat": 32.3163, "lng": -90.2124, "type": "city"}, {"state": "SC", "pop": 571249, "name": "Columbia", "lat": 34.0366, "lng": -80.9043, "type": "city"}, {"state": "SC", "pop": 613847, "name": "Charleston", "lat": 32.8137, "lng": -79.9643, "type": "city"}, {"state": "SC", "pop": 256079, "name": "Myrtle Beach", "lat": 33.7095, "lng": -78.8844, "type": "city"}, {"state": "SC", "pop": 109298, "name": "North Charleston", "lat": 32.9086, "lng": -80.0705, "type": "city"}, {"state": "SC", "pop": 185031, "name": "Spartanburg", "lat": 34.9437, "lng": -81.9256, "type": "city"}, {"state": "SC", "pop": 115755, "name": "Rock Hill", "lat": 34.9413, "lng": -81.026, "type": "city"}, {"state": "SC", "pop": 462640, "name": "Greenville", "lat": 34.8364, "lng": -82.3649, "type": "city"}, {"state": "SC", "pop": 132708, "name": "Mauldin", "lat": 34.7864, "lng": -82.2997, "type": "city"}, {"state": "KY", "pop": 1003412, "name": "Louisville", "lat": 38.1662, "lng": -85.6488, "type": "city"}, {"state": "KY", "pop": 312495, "name": "Lexington", "lat": 38.0423, "lng": -84.4587, "type": "city"}, {"state": "OR", "pop": 167922, "name": "Medford", "lat": 42.3372, "lng": -122.8537, "type": "city"}, {"state": "OR", "pop": 256175, "name": "Salem", "lat": 44.9231, "lng": -123.0245, "type": "city"}, {"state": "OR", "pop": 111523, "name": "Gresham", "lat": 45.5023, "lng": -122.4414, "type": "city"}, {"state": "OR", "pop": 2027629, "name": "Portland", "lat": 45.5372, "lng": -122.65, "type": "city"}, {"state": "OR", "pop": 263860, "name": "Eugene", "lat": 44.0562, "lng": -123.1172, "type": "city"}, {"state": "OR", "pop": 105164, "name": "Hillsboro", "lat": 45.5289, "lng": -122.9373, "type": "city"}, {"state": "SD", "pop": 177629, "name": "Sioux Falls", "lat": 43.5382, "lng": -96.7315, "type": "city"}]